stop_id,stop_code,stop_name,stop_desc,stop_lat,stop_lon,location_type,wheelchair_boarding
5e8fdb79-9f12-4ebc-b0ad-3608ec3ed3cc,330,Georgian College,,44.4120865709833,-79.6691320639331,0,0
c6ecf3b3-1135-4e28-8c1b-a155274e573b,109,130 Bell Farm,,44.4110163695226,-79.6752555474791,0,0
e319d014-117e-498e-85bc-82c036162e6a,104,Alliance Boulevard,,44.40946238,-79.6790649,0,0
b6bfea95-7933-4b5c-a367-d9933216803b,107,Bell Farm at St Vincent,Bell Farm at Saint Vincent,44.4074014,-79.68485661,0,0
7eafbf2d-1ac2-4e01-8b80-3c9c991f5fd6,628,St Vincent at Cundles,Saint Vincent at Cundles,44.41205785,-79.68921308,0,0
fa4bec51-f8f1-4e10-8901-b7ce0c0a5046,633,Osprey Ridge Road,,44.41519114,-79.69192287,0,0
a3c9cb6d-880c-4e1e-8136-13e75d9b8a66,632,St Vincent at Livingstone,Saint Vincent at Livingstone,44.41765012,-79.69403563,0,0
64f34a99-4af4-45e5-8f8d-666615c73769,444,Margaret Drive,,44.41822043,-79.69612789,0,0
21e7d160-7670-4515-8599-7ecc55944458,446,Michael Crescent,,44.41611771,-79.70096226,0,0
33eeabcb-c0b8-42d8-88a5-8e8f5879f401,447,East Bayfield Community Centre,,44.41430522,-79.70283155,0,0
1f81e6b3-0a97-427d-b31f-a18be6cc03be,440,Georgian Mall,,44.4106623179115,-79.7064871911101,0,0
4d79ce4c-0d1d-4f64-910a-d382a56e4a32,453,Wal-Mart Plaza,,44.40902611,-79.71030063,0,0
5e27f745-94e9-4be3-8e66-86becb7aee74,912,Gloria Street,,44.40734596,-79.71163434,0,0
8cf5af08-3b40-4d9d-b7b9-e6a084c9a233,913,Heather Street,,44.4066849,-79.70874205,0,0
dd5ce073-11ec-4e39-a0f6-7524e2fe2ecf,914,Kozlov at Cundles,,44.40489571,-79.70689529,0,0
61528c60-8fbd-49c9-8390-845cdc788b09,232,Coulter Street,,44.40347316,-79.70744886,0,0
a47eaac4-a781-4850-bbc6-121f7c248bf8,238,Coleman Health Care Centre,,44.40075877,-79.71489181,0,0
b86138e1-dc05-41af-88f3-09ea7ca2f648,244,Cundles at Sunnidale,,44.39987102,-79.71692684,0,0
c6b929c1-2ba7-49b9-844d-6d2f02884c41,15,Anne at Cundles,,44.39832266,-79.71897992,0,0
4e5c06e6-79ce-440c-93fc-942b62c502b7,4,Austen Lane,,44.39621595,-79.71720756,0,0
f4c5b65d-8b1d-4b08-9e9c-a6dc26d27bf1,23,Shelly Lane,,44.3944009,-79.71562628,0,0
e68c98a4-3ee0-4ff4-a2a9-0cf266f8dcc1,12,Portageview Public School,,44.39290588,-79.71428337,0,0
beb1a8a9-ea75-417c-9fee-524312bc46e9,24,Shirley Avenue,,44.39053543,-79.71222054,0,0
784f3bfb-9816-49b2-b7b1-afddbf44e23b,18,Anne at Edgehill Drive,,44.38715706,-79.70935615,0,0
96a44b4e-95fd-4b42-a888-eac85741dfd9,249,Anne Street,,44.38473684,-79.70599285,0,0
7d43cba5-c5e4-4539-b908-654cc1f973b3,699,Wellington Plaza,,44.38769346,-79.70626444,0,0
19fbef00-946f-487a-9788-1059279b9b54,695,Barrie Medical Arts,,44.38939941,-79.70355348,0,0
ba5678f7-6bf9-46d4-9747-dd482df622d7,608,Victoria Village,Victory Village,44.39075455,-79.69806293,0,0
47650874-5dcd-4f2a-809c-f688f059e846,486,Maple at Ross,,44.39018841,-79.69253335,0,0
70264f35-9002-4510-90cc-3399058436e8,1,Downtown Barrie Terminal,,44.3877106540031,-79.6910255963222,0,0
300790d3-25e9-45c2-82ed-a74e51c6eb00,144,Barrie By the Bay Plaza,,44.38419889,-79.69396387,0,0
4bbced63-f629-4412-b4e4-e3676aee7bd9,151,Victoria Street,,44.38145815,-79.69378391,0,0
0b07eb5c-c246-4d79-a0e0-e97fb6c6527e,148,John Street,,44.37990156,-79.69372107,0,0
2286c7f8-59ff-4e67-a74b-4de433ff8f3d,146,Brock Street,,44.3772017584563,-79.6934811588216,0,0
9422c84f-7d64-4f53-a58b-9bf49893421e,310,Essa at Allandale GO,,44.3738959300959,-79.6908320092929,0,0
db0bff82-52b2-46b2-8de5-84d6147ecb66,168,Granville Street,,44.371544,-79.690533,0,0
0d6db32a-0adb-4a9e-9b32-ba639cc60487,174,William Street,,44.37130339,-79.68839559,0,0
1942059c-43db-4e9e-8398-5190c5ac6aa5,165,Burton at Bayview,,44.3711314,-79.68436993,0,0
fe9e76d1-6c4b-452e-bced-cd103b063fc2,173,Robinson Street,,44.37138819,-79.68121647,0,0
a7aa208c-363e-48c7-87c3-27bb9cd11f91,170,Melinda Crescent,,44.37159264,-79.67856723,0,0
7f658344-d233-453d-89d1-9b9bd2eecaf0,166,Garden Drive,,44.37077229,-79.67420508,0,0
25b46aae-c277-4ce9-8702-b6c34c0f1a06,716,Yonge at Huronia,,44.370044,-79.669356,0,0
f49f1cb8-5a82-4e3f-8698-5b5d4d2dd2a7,712,Foster Drive,,44.36896555,-79.66673841,0,0
34d63177-d074-47f7-9bec-89565b52a054,718,Yonge at Little,,44.3664112309463,-79.6627081729596,0,0
5c7a6dcb-392b-4376-86d7-a9e860a68730,719,Barrington Residence,,44.3639105,-79.65957671,0,0
9c1c2857-c828-455d-9e29-6c41baee3430,709,"D'Ambrosio Drive",,44.36098314,-79.65592268,0,0
a2f39abd-a4ea-40cc-9db0-72b096fc2010,707,Cox Mill Road,,44.3589278673487,-79.6524487228661,0,0
c7078647-c372-4bcd-8f42-6e1f42576313,705,Yonge at Big Bay Point,,44.35651809,-79.64697827,0,0
e2e39c55-b488-4e89-8983-bb15f131ae69,722,Madelaine Drive,,44.35464896,-79.64176327,0,0
9afc9ba3-2ef4-4d5e-91ed-a58560b57d1f,800,Esther Drive,,44.35279936,-79.63652178,0,0
69d0aa2b-15b2-4ac9-930a-d0b77f24125e,801,Country Lane,,44.35168136,-79.63343444,0,0
eee521f4-1bd6-428c-a166-c49e0eb0734c,725,Barrie South GO Station,,44.35185862,-79.62838858,0,0
80624e82-8b76-40a0-aa0e-190d118467eb,953,Yonge at Mapleview,,44.348704,-79.627771,0,0
ef9c0864-6228-46e2-9a08-7701a15e11a0,955,Goodwin Drive,,44.34762231,-79.63144988,0,0
e0e8c683-25d9-480d-9f50-76bc529fb1ab,956,Dean Avenue,,44.3462834848766,-79.6374556273286,0,0
fa715aa5-f829-4e14-a9b0-cbf8b79d396c,957,Madelaine Drive,,44.34496679,-79.64324638,0,0
d2c68cc5-f2dd-47b8-9de0-b965003dd21a,517,Seline Crescent,,44.34385216,-79.64805831,0,0
a3eb168c-8417-4a89-acbc-f2c05e8f41c9,516,430 Mapleview East,,44.34349861,-79.64965678,0,0
7d803650-d4a0-4f51-abb4-e998c51b7c86,511,Country Lane,,44.34279639,-79.65277074,0,0
ed7d1095-e6c4-425f-bf90-a1abfe2c2017,512,Mapleview at Huronia,,44.3409076884547,-79.6614327634589,0,0
7d9fa78e-69c0-4749-9710-d3e6ae8167d1,741,Huronia Medical Clinic,,44.34714163,-79.6637841,0,0
efd678cd-66b0-4ed1-824e-46bc3b379ee8,675,Churchill Drive,,44.3454862,-79.66983149,0,0
1a09d600-2524-422b-b4db-a543221c0a59,987,40 Churchill,,44.3443915642607,-79.6741400183283,0,0
111eb41a-6d3b-4e27-9c78-981aafa094f2,777,Park Place,,44.3402780973043,-79.680277379487,0,0
8b08b05f-1d13-464c-8a56-53ac9aa414d1,485,Maple at Ross,,44.39039984,-79.69250726,0,0
cdc5c103-235a-4862-bddb-984f1bf529aa,73,Bayfield at Wellington,,44.394131,-79.69412,0,0
fb430c34-4ce2-405b-ae93-04a17d7536b6,67,Grove Street,,44.39659223,-79.69624255,0,0
9115d61b-cd32-4d8f-8373-19f4a52ccda2,57,Bayfield at Rose,,44.3985375544438,-79.6979186901314,0,0
e361558a-be86-4104-bdab-dcfb5c53e506,59,Coulter Street,,44.400654,-79.699795,0,0
52c8d97d-aa98-4133-8dae-4c005e01d226,65,Ferris Lane,,44.402915,-79.701782,0,0
ae22376d-18f9-475b-9771-7fd3e3ceb8b3,61,Bayfield at Cundles,,44.40466177,-79.70328888,0,0
c5dde12c-701f-4572-9439-fbc1409028d1,70,Springwater plaza,,44.40802404,-79.70620755,0,0
ccf43f5f-47a2-46be-a211-3ac55b86be2b,441,Georgian Mall,,44.4110941535887,-79.7051031711759,0,0
425a2efa-129c-402b-b445-9212559a6dbf,443,Celeste Drive,,44.41588126,-79.7010938,0,0
32567810-a2bb-4802-aea8-7fff5ee329c4,445,Meyer Avenue,,44.41804245,-79.69606761,0,0
982d7fe4-f59b-4f88-a9c4-92eecb1c8555,634,Robin Court,,44.41184,-79.689336,0,0
c33887b0-71cd-46bf-a2be-c3b9e58dba03,106,Alliance Boulevard,,44.4072921459517,-79.6848022757683,0,0
eaee9b75-4543-4d4e-8225-6f15fd0ad39a,108,115 Bell Farm,125 Bell Farm,44.4107726,-79.67581077,0,0
099e4670-c975-4f1d-a988-dc9e09b56cb9,559,RVH Atrium Entrance,,44.414355,-79.663366,0,0
33573af5-3724-4e1b-b8af-9192f513c593,326,322 Georgian Drive,,44.4164143154868,-79.6586097573406,0,0
d813f329-dcf1-4048-b42a-69c9511cbc02,402,Cheltenham Road,,44.41152705,-79.65399405,0,0
ecacd5d5-9c7b-4d2a-839b-c99bbcb02b54,411,Hickling Trail,,44.40830721,-79.65458849,0,0
acba36d6-e1c3-40ad-9666-36341687ed34,407,Johnson at Grove,,44.40542054,-79.65513496,0,0
d9c5f0e5-8e33-404f-8c01-4b5ed02662cb,399,Johnson at Blake,Blake at Johnson,44.397829,-79.656562,0,0
ad7baf95-4b4a-44a3-a973-f4b01fec2807,131,Collier Street,,44.3916347,-79.67656421,0,0
0e620656-b4f7-4599-aa03-bf3772bbbbc4,190,Collier at Mulcaster,,44.39053858,-79.68510446,0,0
1ff0a1fd-9004-4a76-be29-44facd223b40,1910,McDonald at Owen,,44.3927638944125,-79.6877634846936,0,0
6ae89aae-85b4-4b7a-bd0e-0a17155ed03a,88,Bayfield at Dunlop,,44.3894998733594,-79.6905018781608,0,0
1be242f8-742a-463e-a9ce-c561d11df00b,76,Georgian Mall,,44.4118745345584,-79.7085762670262,0,0
8126f5d0-975b-4bb9-ae6b-16a7c55a0879,77,Georgian Mall North Entrance,,44.4130404915071,-79.7094756531775,0,0
3d48dde2-f350-4ca1-b27c-e58895cd2662,72,Bayfield at Livingstone,,44.41002612,-79.7083016,0,0
834e0366-28b6-4894-a894-a38e2a92d3c9,69,Heather Street,,44.407827,-79.706456,0,0
4bc6b15f-051c-4ad0-b310-412d91697988,60,Kozlov Centre,,44.404223,-79.703312,0,0
948fa1b0-a6fb-4a0a-9906-14bafdd9e1b0,58,Bayfield Mall,,44.40113899,-79.70051743,0,0
a1851516-b8d2-4e11-a583-3752217bff0d,64,Bayfield at Rose,,44.3984106314398,-79.6980873874874,0,0
1caf4d9e-0e97-4a12-b10b-faa26a8af347,68,Grove Street,,44.3964425859715,-79.6963538048478,0,0
1fa08bb1-41ed-4a40-bdcd-d783017c8a28,74,Wellington Street,,44.39395278,-79.6942707,0,0
215fe3a8-053a-4234-8e28-9fb119cb6942,75,Bayfield at Sophia,,44.392146,-79.692739,0,0
b0a2bbf8-49ae-41d9-88e1-7f183fe7dc27,818,Burton Avenue,,44.3714202565801,-79.6925812776435,0,0
54b50fc5-4ab6-4a90-a10a-2d64ec951e1c,381,Adelaide Street,,44.36875087,-79.69280688,0,0
04a7d0b6-5ac7-4523-a124-61b7f8370606,749,Marshall Street,,44.36781897,-79.69000517,0,0
a5470dab-2cc6-4892-b0cc-4982052d89d7,748,Baldwin at Brooks,,44.3678234140768,-79.686940591749,0,0
a26e7b1f-064f-4adc-ad8e-06b79b62c389,92,Glenridge Road,,44.36660415,-79.68471616,0,0
85cc048f-5118-4cd0-8526-c2ec30800c1a,94,Bayview at Little,,44.36268923,-79.68368112,0,0
028a8ed6-cfd6-46da-aba4-5dc59ad47056,969,Barrie Primary Care Centre,Barrie Primary Care Campus,44.3480152993211,-79.6795899975056,0,0
32699b63-d70b-4662-b64c-1f0cef0a26da,91,Bayview at Churchill,,44.34288369,-79.67825741,0,0
33bd3569-0892-4c61-8446-bc70cf85edfd,984,Bayview at Mapleview,,44.3359,-79.678713,0,0
03be1f3b-a64a-4ae7-b4ca-64a6f5fe8166,738,Saunders Road,,44.33288834,-79.6778266,0,0
d154e072-ea78-456b-a9dc-d2442808b320,617,Hooper Road,,44.33298229,-79.67379781,0,0
547f5a4c-09f5-4fdb-845e-e77105ce6281,618,Saunders at Welham,Saunders at Whelam,44.33408414,-79.66898149,0,0
e27ea5e1-aa03-455b-b6ee-993b25123a87,931,Welham at Hooper,TOD bus stop at Welham and Hooper,44.336256,-79.669064,0,0
f43d1802-cf6e-49fa-b5bc-22743f53813c,680,Welham at Mapleview,,44.3392205711682,-79.6698015230892,0,0
54086dab-7efb-48ad-8f5d-0103349f89c6,684,545 Welham ,,44.3421171222403,-79.6700483074495,0,0
ccaa684a-4040-4c7a-ae07-c5b311954841,676,Churchill Drive,,44.3454591539776,-79.6697395843112,0,0
cff180bd-7b1b-4aa4-b6aa-ab47eb17b3c1,677,Ellis Drive,,44.34902631,-79.67005942,0,0
4be4915f-d68f-4108-840f-f25b02f7ef07,674,Big Bay at Welham ,,44.35189,-79.670147,0,0
891c0c07-2629-4caa-939e-be3bb5524bb9,116,Huronia Road,,44.35324087,-79.66438248,0,0
c4eded19-bbd9-4771-9c15-7900622ed569,113,Willow Landing School,,44.35374366,-79.6621861,0,0
6f5b56d7-a573-438f-9758-39d7eebf7fcb,118,Loon Avenue,,44.3543867,-79.65939591,0,0
2860df65-4920-467c-9233-210c0105e604,765,Big Bay Point at Yonge ,,44.3567955110547,-79.6485984115957,0,0
b1cc4773-41c4-4bad-ba84-101f3737207d,971,Ashford Drive ,,44.3582854782513,-79.641788282501,0,0
49799bc5-e72a-4e6f-91b3-d5ae265cf7c8,120,Big Bay Point at Pine ,,44.359682,-79.635556,0,0
46a04eaa-9f46-4f83-b756-9092a27f7980,822,Pine Drive,Big Bay Point Road at Pine Drive,44.360567,-79.631575,0,0
ea828553-a928-4a8c-9be8-f6c41ac5eb54,122,Big Bay at Sandringham ,,44.362622,-79.622547,0,0
c873fd18-b63a-4b8b-a902-02a5f9bfaff2,119,Big Bay at Prince William Way,,44.364072,-79.61601,0,0
732c7ae6-a228-4e3d-870b-909528b63d42,601,"Sovereign's Gate",,44.36196381,-79.61469591,0,0
f9f7f366-a3dc-4906-b0ba-55911c967673,599,Prince William Way at Sandringham,,44.358756,-79.612627,0,0
bd8bd30f-319b-4cf4-a974-507bc2616326,593,Saint Gabriel Catholic School,,44.35519739,-79.61162789,0,0
14e292f4-aceb-47cd-9f02-843a795fa069,597,Mapleview at Prince William Way,,44.35223,-79.611357,0,0
6a44e104-8b6a-4a2b-a5d7-0ff7285d7a56,514,Royal Jubilee Drive,,44.35115115,-79.61581253,0,0
b6c57832-0f30-448d-8e0c-73aa7e6b24c8,509,Mapleview at Lily,,44.349796,-79.62196,0,0
6a7229cc-7415-4dc8-b8db-998af4b382d6,522,Mapleview at Yonge,,44.34860422,-79.62718871,0,0
3982a490-84b6-4f40-a61f-759e77378bfb,506,Mapleview at Park Place,,44.336527844436,-79.6805858136048,0,0
aaa3ffae-cd4a-4f8c-83cc-132a6f61a5db,524,Barrie View Drive,,44.3345698516861,-79.6886835636441,0,0
2ee1da86-1dc7-4879-a9fd-269acaf5c60c,526,Canadian Tire Plaza,,44.3336277532813,-79.693040113649,0,0
f01ae38f-8e3f-4c1d-bbe9-12d0cddaf037,536,120 Mapleview Drive West,,44.3329872747287,-79.6958658093922,0,0
25745cfe-948c-4973-9b18-f44b58cfe272,538,"Mapleview at Veteran's","Maplview at Veteran's",44.33243152,-79.69856992,0,0
eb22d0b1-e35d-4f3a-9ff0-68a7ae45b9a6,533,Reid Drive,,44.33128177,-79.70367789,0,0
97d78d27-bb8c-40ee-85ba-559eb057c9d1,530,Hollyholme Farm Road,Holyholmfarm Road,44.33016375,-79.70874238,0,0
c2ace9df-8f61-4b15-ae4b-963ea6c238eb,308,Essa at Mapleview,,44.328344,-79.715184,0,0
834f4b19-f1f0-4076-acda-c48fa7cc344f,299,Dyer Boulevard,,44.32466096,-79.71724085,0,0
5bc007e6-60c5-4e93-a27a-27b4afad8def,46,Athabaska at Essa,,44.3218369377754,-79.7187918256993,0,0
6d3e3ace-2f00-4139-b4d1-fc8358778245,49,Rundle Crescent,,44.32269687,-79.72353994,0,0
49157236-0223-43bb-acdf-cb09cf0ba56a,47,Lougheed Road,,44.32184739,-79.72805133,0,0
e94e4c5d-3385-4653-bfd4-fdcf4084d0b5,473,Lougheed at Mapleview,,44.32504571,-79.72906455,0,0
e00d2728-8999-43bb-8d89-013ddd6d81ec,548,Marsellus at Mapleview,Marsellus or Bear Creek,44.32693573,-79.72470867,0,0
8fe76858-0fdc-4ea0-8143-8553c7052244,552,Sundew Drive,,44.32879474,-79.72520113,0,0
01ec947c-a64f-4b0c-b9f8-c71c99786aa9,545,Downing Crescent,,44.33163557,-79.72400905,0,0
d3d6f21e-3ab5-439e-9d40-e8a1f718a0bf,542,Churchland Drive,,44.33349211,-79.72085917,0,0
ddb7b662-c178-4bfc-ae52-517a3806bb4f,543,Clute Cresent,Clute Crescent,44.33718263,-79.71954061,0,0
c55c341f-892f-4077-906e-5fdfe1ec3af0,547,Marsellus at Mapleton,,44.33921511,-79.72006099,0,0
0facd0f5-2e8b-4fd6-947a-25c10bfd4afe,488,Peggy Hill Team Community Centre,,44.33987811,-79.71668472,0,0
9214b30c-b440-4f5c-b0d9-e6a5d4f088ea,493,Emms Drive,,44.34041427,-79.71421573,0,0
54a556a7-ce1e-47a4-a4cb-075869553708,495,Mapleton at Essa,,44.33954493,-79.71003526,0,0
585f5edc-d5ae-402b-a3d0-88b627a1984b,291,Roberta Place,,44.34205309,-79.70697499,0,0
f59b04a2-782a-4913-ad72-e360e41058fe,305,Harvie Road,,44.34390649,-79.70586621,0,0
83f68f3d-4fe1-4ac8-a420-a8abbc3033da,313,"Essa at Veteran's",,44.34656133,-79.70433311,0,0
488cd401-343a-4027-9bb9-661190a566fa,295,Beacon Road,,44.35114001,-79.70005527,0,0
8393462f-efe2-4140-b5fe-29cb52de4278,983,Loggers Run,Essa at Loggers Run,44.3548817548085,-79.6992157220373,0,0
809e5205-951a-46ad-b76f-8312575a005d,296,Bryne Drive,,44.3576689,-79.69807715,0,0
3b9a3b56-61c0-4b8a-bf6f-8b1278951f58,301,Essa at Fairview,,44.3642077961092,-79.697139692136,0,0
a4ad0ccc-0e07-48e8-b9bb-5cb98bceb965,873,Anne Street,,44.3681091,-79.69473858,0,0
f9ac0598-56f3-4d52-902d-62f10f29a574,817,Burton Avenue,,44.3713116271086,-79.6923760886416,0,0
01f074e0-d572-4866-8306-4082c8bfb8e6,7320,Essa at Allandale Go Station,On Essa at Allandale Go,44.3733914242827,-79.6910479196379,0,0
bf6e7f38-fbd3-410c-bea1-96f725b61391,147,Brock Street,,44.3769033910184,-79.6930328178954,0,0
bb0c7acb-8d14-4172-a811-a58483afde50,115,Brock at Innisfil,,44.3764176960434,-79.6959484619837,0,0
56a713d5-efde-4ef5-ae45-5dbc32281afa,8,Brock Street,,44.37535431,-79.69885335,0,0
6fe0d0d6-da83-4216-9219-e64bd4c66509,21,John Street,,44.37766696,-79.70087481,0,0
7c3bbab8-42c2-4de0-93f7-330ff029a857,29,Vespra Street,,44.37975077,-79.70266864,0,0
8f3200ba-1dba-4cde-9f17-897ffbb3e883,5,Anne at Dunlop,,44.38220464,-79.70471715,0,0
86619d88-c44a-4d92-b4fd-7632b8028b0d,266,Dunlop at Anne,,44.3827458848206,-79.7048845711282,0,0
405e9d3f-48b7-4dc6-a1d3-9f2e9ebd1900,272,Frances Street,,44.38488824,-79.69991235,0,0
addbc1b7-327d-4d96-ab66-432c718a21b0,270,Eccles Street,Parkside Drive,44.38605848,-79.69723418,0,0
eac13741-6a1e-45a6-8e29-c18de64f02f0,275,Dunlop at High Street,,44.3868067495112,-79.6952929911192,0,0
e67f4929-ce78-4af4-9b35-bc5d0e7a5c08,1920,Mcdonald at Owen,,44.3925599314598,-79.6881541841904,0,0
983802d2-2241-46b0-9fc9-d3cf9f0a0046,1890,Mulcaster at Collier,,44.3907431448645,-79.6856035097755,0,0
dfc49002-7d23-4423-9ae4-99be331589ed,194,Poyntz Street,,44.39042963,-79.68326777,0,0
c1cc61fb-c4eb-4ac6-bf47-563811d8e948,186,Albert Street,,44.39104266,-79.67958159,0,0
ef025916-0267-4d7f-b91d-2e6b0de3883f,128,17 Blake Street,,44.39170884,-79.67601842,0,0
a5fec43c-8c1a-453c-8620-6c3dc6974f94,141,St. Vincent Street,,44.39260564,-79.67344728,0,0
7ee3a324-43b0-4180-bf84-5067763d6fae,139,Rodney Street,,44.39346245,-79.67096589,0,0
0a32e866-7a61-4b7b-9ed9-0b53ccb82c47,133,Cook Street,,44.39417028,-79.66891398,0,0
b225934e-1019-4c78-a3f2-75ff00a27446,136,Parkview Center,,44.39522877,-79.66530307,0,0
31d2260b-4093-4859-90cb-b9dc6276a6fb,143,Vancouver Street,,44.3950747,-79.66309055,0,0
f926e036-f8c9-4835-9361-edf70b9f6d49,129,Blake at Johnson,,44.3970299897808,-79.6569521520705,0,0
5b703776-3315-4d7c-bba1-985e1d0591cd,182,Blake at Huron,,44.398449,-79.653186,0,0
f0900873-72a7-4d64-a03c-70b396a17326,184,429 Blake Street,,44.399395,-79.650872,0,0
bc3144a1-409e-40e1-9fef-7464e6dbc0b1,183,Steel Street,Steel Street at Corrinhall,44.40074,-79.651694,0,0
5cb9ec06-b15a-468f-8581-f7b506462d65,414,Johnson at Steel,,44.401289,-79.655784,0,0
b9b09238-288d-4c28-aa8a-554994581002,409,Johnson at Hickling Trail,,44.4038,-79.655301,0,0
a2c6701c-ffa6-41e8-b166-5a93f3ae3f2d,410,Johnson at Mayor,,44.406942,-79.654712,0,0
0b678588-af72-41ca-a29a-818b2e40a068,401,Cheltenham Road,,44.41169531,-79.65379228,0,0
95999699-4769-47ab-a559-cb53188a868b,406,Johnson at Georgian,,44.41529301,-79.65333888,0,0
8e8bf66f-934b-4452-afa2-ea0f04a70451,325,314 Georgian Drive,,44.41637423,-79.65657733,0,0
95173db3-8745-4e45-bef7-63e44983f907,332,Gallie Court at Quarry Ridge,,44.4157759497032,-79.6591837501039,0,0
1df4d317-4cd0-4920-b797-63f4d5ab3ef5,612,RVH Main Entrance,,44.4154789801079,-79.6611757465238,0,0
0397a79e-32bb-45bd-9cb8-411cb09bd8d6,569,RVH Atrium Entrance,,44.414484,-79.663549,0,0
b1a17032-fd80-4dad-b02f-b6880193acb4,607,Victoria Village,Victory Village,44.39089524,-79.69802649,0,0
aeb6c2cd-619c-4c8b-aae3-56437c678f76,696,Barrie Medical Arts,,44.38932298,-79.70403389,0,0
c44f8a26-73e9-42ce-a090-565f23b45933,700,Wellington Plaza,,44.38667327,-79.70698462,0,0
bb3cca0f-cf1a-45a8-aa62-b672d4049d8e,248,Wellington at Donald,,44.384555,-79.706561,0,0
42ef5321-1686-45b3-9e31-d3ee5487324e,894,Edgehill Drive,,44.3868188194525,-79.7094952886996,0,0
323c22f2-748f-43f9-99de-2d5dd62844a6,895,Leacock Drive,,44.38493693,-79.71186572,0,0
4fdc801e-94d8-4da3-9e7b-a57199fb5366,281,Engel Crescent,,44.38339257,-79.71534062,0,0
1245963f-ee71-420e-ae8b-a96c5608551a,324,Eden Drive,,44.38342827,-79.71933538,0,0
db264fa4-db79-470f-ada1-064e4e77ff0d,322,Lewis Lane,,44.38611843,-79.72106688,0,0
90cf11a3-8de9-4c8a-8bb4-4891954431ee,897,Fox Run & Leacock Drive,Leacock Drive,44.38753486,-79.71917122,0,0
6be7de86-9ca0-4ec8-a1d0-39336f660eb5,898,Letitia Street,,44.38991961,-79.72088082,0,0
e85f9f9c-21f7-4521-9a75-103dc81f604c,899,Leacock at Frost,,44.39255316,-79.7226158,0,0
28da20d0-882f-456a-af72-188d6a4e0e77,947,Cundles Road,,44.39616283,-79.72350518,0,0
6adf3ff3-d196-41b3-8c3b-9514395de7e2,230,Burns Circle,,44.39635486,-79.72676632,0,0
b2399ad8-f6bb-4600-b31a-186a86e838c7,242,Longman Drive,,44.39752466,-79.73016723,0,0
163697be-8b6a-4edc-bdc1-7602c408a939,246,Emma King Elementary School,,44.39649,-79.73277125,0,0
530e600d-06c5-485b-b8cc-14cdbadaf527,240,Cundles at Livingstone,,44.3971873317756,-79.7354748668057,0,0
c390689c-c90f-459c-ac9f-6ffffe45335f,457,Delaney Crescent,,44.39850887,-79.73220591,0,0
a89ee150-3903-4bf9-a4cf-972f955ea2b2,470,Livingstone at Sunnidale,,44.40124971,-79.72902032,0,0
dd0ef8c2-f03c-41a0-9e55-0a23bb60ee27,468,Neelands Street,,44.40302252,-79.72606062,0,0
5d25032d-ecc6-4dfb-a5c0-693020fd41cf,451,Livingstone at Anne,,44.40378993,-79.72389526,0,0
3123f5d1-75f5-4b1b-bb07-e4468af089f0,461,Ford Street,,44.40570289,-79.71952208,0,0
720e4171-25b3-4bfb-8845-9a97a59650e5,467,Milne Court,,44.4072344545862,-79.7158145735153,0,0
a5411413-6b66-4a45-8498-65400d2e23ec,463,Kozlov Street,,44.40809146,-79.71265922,0,0
04f19cac-e189-404d-889a-e75ede00748e,454,Wal-Mart Plaza,,44.40887955,-79.71010882,0,0
2d42930b-6d44-4b14-af1f-f495108e10aa,455,Livingstone at  Bayfield,,44.40971361,-79.70817312,0,0
1b51309f-0b37-4380-9954-0fa629eb64e5,449,Stanley Street,,44.41288804,-79.70290207,0,0
2ae48145-5623-435a-8452-8511bf68efbd,926,Marjoy Avenue,,44.42020676,-79.6902143,0,0
47d4880e-2bce-4e36-8e4a-b046f7489d09,927,Osprey Ridge Road ,,44.416625,-79.686737,0,0
9315bbb5-3bb4-4457-be63-9c31ff940a11,224,Cundles at Livingstone,,44.413857,-79.683223,0,0
59c95cb7-14d0-4d53-b246-404752635246,223,Lions Gate ,Lions Gate at Cundles,44.415773267494,-79.6791420685734,0,0
e20daf44-252b-4161-b40b-f958825ae2a3,215,Cundles at J.C. Massie Way,Cundles at Duckworth,44.41633987,-79.67620116,0,0
5d5751a1-5acc-43ef-9c7c-f05ca98a192b,328,Grizzlies Way at Duckworth,,44.410695880263,-79.6728429783532,0,0
dbdd515e-191e-4745-b7c7-ace4de122ef9,335,Georgian College,,44.410379812508,-79.668890868154,0,0
9ea5642c-0f84-41a6-af85-89c9986d216d,941,Grove at Cook,,44.4064604353705,-79.6682759116238,0,0
d057c4dd-d745-4918-8fdb-333fd82798a7,403,Grove at Nelson,,44.4060150245197,-79.6637060769042,0,0
15659b90-88c3-458b-a16a-49028a6610ad,942,Nelson at Steel ,,44.4020750699446,-79.6642157487105,0,0
6586a934-773c-44df-a2c6-de329ce56a05,943,Nelson at Napier,,44.3987305395077,-79.6648657110533,0,0
64f17079-6a5a-4bd2-b03b-dcb8521dd956,944,Napier at Rodney,,44.399412,-79.673344,0,0
f69a6531-28e7-44d0-a1fe-43a7361accb0,583,Penetang at St Vincent,,44.3988565742288,-79.6783561812852,0,0
12adb278-8c2e-4bd0-99a4-731e08143ed6,584,Penetang at Dundonald,,44.3967215357257,-79.6817894090289,0,0
f038c5a6-602b-4f17-b510-e431e8020fff,588,Penetang at Berczy,,44.3949811934619,-79.6845837078696,0,0
efbd737b-8f6e-4e66-a919-61a0dc2b25a3,946,Mulcaster at Codrington,,44.393033,-79.685702,0,0
3abe45ae-f484-4c74-aafc-6e8ec90d6cf6,752,Huronia Medical Clinic,,44.34749335,-79.66391904,0,0
43e0dbaf-4e2f-4410-a53d-a9e6357b079a,513,Huronia Road,Mapleview at Huronia,44.3407190028568,-79.6613567060982,0,0
aec4989f-cfdd-4b91-9a8e-05ce397d1fc6,519,Stunden Lane,,44.34256241,-79.65314658,0,0
09a2dc87-7faf-4b9d-94b6-fc8ffbf37c68,518,Seline Crescent,,44.34367318,-79.64834135,0,0
166eea0f-aba2-4b0b-875b-47f1fb8284a6,965,Madelaine Drive,,44.34473773,-79.64353896,0,0
30ac1087-bc72-47c0-b1e9-60cd62be439b,966,Dean Avenue,,44.3462413790355,-79.6365890874607,0,0
47191f79-33c2-4e1d-ae6d-1d9c95cf86d9,967,Goodwin Drive,,44.34733971,-79.63193984,0,0
adcee94f-fc70-416a-8d4a-15973da8ebb6,954,Yonge at Mapleview,,44.349404,-79.628225,0,0
023e6c7a-2b3f-4a71-9576-2f0b787d3ad9,782,Country Lane,,44.35162742,-79.63273005,0,0
5ef39ebc-b6e7-4b7d-ad51-0df7b02e05b4,783,Esther Drive,,44.35275154,-79.63584556,0,0
7bc26c80-53ed-45f1-a4b0-5f3f0bff5660,784,Yonge at Ashford,,44.354506,-79.640712,0,0
dbc3a7a1-96bd-4978-ba28-73d58ca93359,724,Big Bay Plaza,,44.35587356,-79.64462188,0,0
0aa051ef-864c-45af-9c63-eef12603f906,704,Yonge at Big Bay Point,,44.35662146,-79.646705,0,0
05eb8408-b76c-40c2-bff5-086bf69e9ab1,708,Cox Mill Road,,44.3583975,-79.65077689,0,0
5da748fd-5191-45fe-8613-13956275127b,706,Mill Creek,,44.35967081,-79.65346446,0,0
2ca45f11-ccf3-4649-b827-fa6c2f549b28,710,"D'Ambrosio Drive",,44.3608334,-79.65540499,0,0
b67209fb-07e3-4cc7-af72-94dd2e860c70,721,MacMillan Crescent,,44.36288783,-79.65797763,0,0
dc6672b4-3609-4142-bf3e-2cb90fb4086e,720,Maclaren Avenue,Yonge at Maclaren Avenue,44.364547,-79.660047,0,0
2b15a348-4bea-484e-8262-c05416feedd4,717,Yonge at Little,,44.36649642,-79.66246134,0,0
41665be5-cf97-4568-8aee-18b5c7a34132,711,Foster Drive,,44.36889988,-79.66626824,0,0
17188b61-e2f0-4f2d-a2a4-6dc4808beaa5,715,Yonge at Huronia,,44.37031143,-79.66970478,0,0
b950a321-c224-49b8-a71a-cfe3d02b5c3d,171,Peartree Court,,44.371134,-79.674817,0,0
345e71b2-fb5e-482b-bef8-038cb98e485c,169,Melinda Crescent,,44.371727,-79.6785403,0,0
5e8b00b8-665d-449b-b612-8d111f7e87f9,172,Robinson Street,,44.37155286,-79.68078785,0,0
20e2b740-879c-4a54-85ed-43f6f6347ad3,163,Burton at Bayview,,44.37112665,-79.68556396,0,0
5cc02b9e-7993-40a0-b9e1-194f5468ab54,167,Granville Street,,44.3716525,-79.69052443,0,0
8ce401fb-94e2-4104-b514-47365155c50a,149,John Street,,44.37959209,-79.69351954,0,0
dfbc5d71-ef03-4689-bf14-864d0897f165,152,Victoria Street,,44.38125324,-79.69361715,0,0
649b940f-1488-4b8a-a6f7-48a238d4a3e5,150,Simcoe Street,,44.38510009,-79.69383166,0,0
5e0d8fcc-9160-4697-81cc-125476b57cc9,872,Toronto Street,,44.3862239,-79.69226406,0,0
a1c12170-68e9-4244-b693-7c479ef49838,62,Bayfield at Coulter,,44.399913,-79.699485,0,0
d4fce700-20c3-47f4-ad59-19438b46f5b4,294,Essa at Ardagh,,44.3573986114411,-79.6986073052161,0,0
0f0af101-7f94-4951-8713-608ceabb89a0,307,Loggers Run,,44.3509698866825,-79.7005185419228,0,0
17005fc0-8a46-4d21-94e5-41fe2e12b5dd,847,"Veteran's at Essa",,44.3467173218464,-79.7040699999913,0,0
f8568670-7012-4dd0-896c-68e88d00a490,278,Toronto at Dunlop,,44.3879694871884,-79.6933926459189,0,0
f1391739-0834-4ef2-9b69-c624b9ae098a,276,Dunlop at Eccles,,44.3864231935992,-79.6969184098791,0,0
8658a3ff-bbe8-46ca-a833-30dda9374d08,269,Eccles Street,,44.38553734,-79.69882951,0,0
5a3c8fd7-9c98-4a01-a76b-e2fb533fb8d0,268,Boys Street,,44.38455522,-79.70103279,0,0
156ac415-01bb-4234-bef6-16d334ff98d2,265,Dunlop at Anne,,44.3832618,-79.70394036,0,0
5390ed3f-33b0-4593-829e-96f415a465ea,273,Hart Drive,,44.38210236,-79.7065486,0,0
01dbfb09-ee2a-4f03-94d3-5b6d11d222ae,934,Sarjeant Drive,,44.3777073548858,-79.716491831332,0,0
0f3a48d2-915c-41c8-9a2c-fe34880a78a0,893,Ferndale Drive,,44.376627,-79.719061,0,0
b16202a3-4a6a-423b-b2dd-cb09ba632df3,263,Ferndale at Barrie Operations,,44.3788482329662,-79.7223685548504,0,0
dd77675a-e19b-4b11-bb29-71dbea63c9f6,282,Edgehill at Ferndale,,44.3805708585737,-79.7237618318476,0,0
15f9446c-7360-42c9-98ef-1fb6bb3dd844,285,Jagges Drive,,44.3805823044215,-79.7284221031844,0,0
2da84a3a-cc1f-46d1-8b98-297d844c9485,288,Pringle at Ruffet,,44.3778459289302,-79.7344070304018,0,0
e7bfaa5c-d413-4c95-a550-c4078f2c6176,610,Pringle at Sproule,,44.3747871196799,-79.7312307035959,0,0
73f34633-8e1b-43bb-abfd-66d9dc1af982,626,Sproule at Kraus,,44.3725249533954,-79.7360251709694,0,0
4ae842a8-1d39-4eee-9b2e-6f12d4e3c5af,834,Miller at Dunlop,,44.3659632111935,-79.7319884988957,0,0
b54f0ee1-1c80-4ebc-aabc-efb85b7e2f09,837,Ferndale at Tiffin,,44.3688096821151,-79.7144266547982,0,0
6dc21eb9-7d61-4bff-bc7b-ed7714b9d1c0,839,Manhattan Homes,,44.36602328,-79.71352142,0,0
786c399f-dbdf-4ab2-a71d-d833f6406e7b,840,Bishop Drive,Summerset Drive,44.36128835,-79.71551185,0,0
eaa1bb7a-ee89-45cb-817c-b2f395be3e85,841,Ferndale Woods Public School,Gore Drive,44.35912106,-79.7156525,0,0
12bd8bc1-717a-432a-8930-ebbe93a91b57,842,Ferndale at Ardagh,,44.3551172,-79.71493634,0,0
81befb32-ba58-4644-a6e4-27f867e46f4f,843,Hawthorne and Wildwood,,44.35219286,-79.71402112,0,0
68bde94d-fa94-42fa-8aef-7d23573b3fb8,844,Hawthorne Crescent,,44.350153,-79.711673,0,0
24cdf9e6-b5c4-4518-b16a-8cb667dc0161,845,Cumming Drive,,44.34938384,-79.71030138,0,0
fb361adc-be85-4057-a423-eb57d0fa805b,846,Stroud Place,,44.34750067,-79.70631313,0,0
643e7f42-d9e5-4941-a193-e5ad4c09c2cf,663,"Veteran's at Harvie",,44.3446048703554,-79.7019837619056,0,0
f5cdd0d6-0962-4402-adb3-1e15acb3451f,670,Veterans at Touchette,,44.342022,-79.701425,0,0
4636cf80-8181-499f-a621-a0f9bbd2c488,667,Mapleton Avenue,,44.33988511,-79.70086525,0,0
d035b205-a647-4f25-ac36-c4d74ebf72e2,660,Caplan Avenue,,44.33712995,-79.700329,0,0
d56b8a2d-4365-45f1-bb1a-66bc9ec718a1,537,125 Mapleview Drive West,,44.3328098555094,-79.6959742722496,0,0
e7af63d2-4d38-4fb6-9339-decf8043ca65,527,Canadian Tire Plaza,,44.33345762,-79.69292148,0,0
b0b47316-cc81-47be-8639-35b4d4294e26,529,Bryne Drive,,44.3340497401117,-79.6906619775248,0,0
70163779-9e5f-4b1b-bac8-8766a494bdba,525,Barrie View Drive,,44.33449674,-79.68796346,0,0
2328bf85-a2ae-49e8-b44c-ba073e6e25c6,333,RVH Main Entrance,,44.4152515778096,-79.6593701636416,0,0
453d7409-3a3a-4416-8870-4102a0573eb5,405,Johnson at Georgian,,44.41534493,-79.65353099,0,0
b95145b1-19c4-4ecf-b7f1-8c3612cfefda,413,Steel Street,,44.40119904,-79.65592549,0,0
f9a57323-37ed-4810-b2f2-a5d585562a3a,343,Steel at Blake ,,44.4005061328713,-79.6519216687633,0,0
4ae00aaa-43e8-4e1b-b809-9d02596ec658,911,Lions Gate Centre,,44.3986084698801,-79.6533217819525,0,0
f267f4ba-705e-4113-9dce-030fb164202b,959,Johnson at Indian Arrow Road,Blake at Johnson,44.39634709,-79.65679556,0,0
3ef2c5ef-d471-4acb-8929-1f21202f389c,142,Vancouver Street,,44.39520833,-79.66276119,0,0
713cfaac-fa46-4bb9-b06b-7830af49ecb3,135,Parkview Center,,44.39535416,-79.66558942,0,0
5877aa90-17da-417a-8dab-504b7ad5539f,132,Cook Street,,44.39437145,-79.66869622,0,0
63e41253-4418-41d2-a845-04fa681920a0,138,Rodney Street,,44.39368616,-79.67065032,0,0
13a41de2-b464-4546-8d01-8f603b2f5e29,140,St. Vincent Street,,44.39282082,-79.67315153,0,0
09ecb1d4-a4e5-4174-9851-97060c0ee077,185,Albert Street,,44.39129636,-79.67919255,0,0
6e6c9a3c-0106-4747-9baa-00e4575fdc93,193,Poyntz Street,,44.39053749,-79.68288564,0,0
cc12b819-7067-4bd6-ab67-9ea3b9dc2697,6,Anne at Dunlop,,44.38162231,-79.70452881,0,0
86c36df6-e79a-4053-9cc9-1d7e9a980bec,19,George Street,,44.38089799,-79.70392712,0,0
bc9856ff-0f87-43bb-8e99-139a68c3d98d,30,Victoria Street,,44.37892344,-79.70222961,0,0
9c90c892-a267-4989-b758-b6f965aa29f9,22,John Street,,44.37787921,-79.70133002,0,0
1faf0f0e-1bf8-45d3-a75a-fc18b9e6b8d7,7,Brock Street,,44.3757131323644,-79.6996274411456,0,0
d0e03be2-cc1e-4a25-895d-1f476da4f082,114,Brock at Innisfil,,44.3763282626631,-79.6959002000811,0,0
008d87ff-061a-40ab-a286-0b1b2f4349ef,293,Essa at Anne,,44.36787963,-79.69510843,0,0
f637df9e-51dc-47a2-b9ac-bca8f7bf9550,289,Barrie Curling Club,,44.366855,-79.69581395,0,0
3eb9dd94-cc69-4d72-bd9f-aa3880e63f42,300,Essa at Fairview,,44.36530952,-79.69690293,0,0
3d48c0f0-384c-4225-8c83-4230f1d84c9e,306,Loggers Run,,44.35499844,-79.69942096,0,0
3e2bfc2e-5026-4e88-aee8-36715f40c3fd,312,"Essa at Veteran's",,44.3470952,-79.7043273,0,0
2eaba6ee-76b0-4149-adb3-80ca3454cc2e,304,Harvie Road,,44.34432976,-79.70590984,0,0
5d39297a-5d0c-4a94-9fd0-bcbaedb28950,290,Roberta Place,,44.34217844,-79.70716838,0,0
87c110a9-994e-4efe-bf34-d6d8c9c1e6bc,494,Mapleton at Essa,,44.33965923,-79.70998171,0,0
9ec2192a-f4d4-4eca-ab25-688409cabd5e,492,Emms Drive,,44.34062273,-79.71360782,0,0
76088eca-e611-4afc-80ed-5fdeea4b7d1c,487,Peggy Hill Team Community Centre,,44.33993688,-79.7171497,0,0
7e8aeeba-f40a-4852-b578-ccae55eaaeab,540,Bibby Court,,44.33854098,-79.72003714,0,0
f3e9a88f-2957-4463-9990-472b103fd2b9,546,Farmstead Crescent,,44.33625379,-79.71945808,0,0
f33ff9e5-febf-4504-9555-6423e3c038eb,541,Churchland Drive,,44.33385271,-79.72055565,0,0
0fb4cd52-28f3-4632-aded-587a65414ec2,544,Downing Cresent,Downing Crescent,44.33161711,-79.72428821,0,0
d6e0a73d-b34f-4ea8-9d79-45a9e5717797,551,Sundew Drive,,44.32871691,-79.72534005,0,0
177f332d-6786-417e-9343-a62a750efb4b,550,Marsellus at Mapleview,Mapleview or Bear Creek,44.32671816,-79.72481436,0,0
66d29558-85bb-471f-9ccf-7fa180591b18,472,Lougheed at Mapleview,,44.32473266,-79.7290948,0,0
788a9691-da38-4838-a227-81a3c0ea746d,48,Lougheed Road,,44.3218044,-79.72753192,0,0
fcc5e058-0d12-4a68-9fca-418318eac62c,50,Rundle Cresent,Rundle Crescent,44.32258387,-79.72355319,0,0
6ad9eefc-405c-4a38-b40b-8d74d8b2bea6,45,Athabaska at Essa,,44.32207598,-79.72029115,0,0
92ac916f-cbd8-40bb-b511-b3cee0ad4d4e,298,Dunn Street,,44.32445589,-79.71713784,0,0
16b62560-114b-41cf-8b66-bb99569c1291,292,Ecole Romeo Dallaire,,44.326568,-79.715909,0,0
0015519e-7548-4659-adfe-28cdf6372e9f,870,Mapleview at Essa,,44.329028,-79.712884,0,0
0e84e607-56d1-474f-8154-a606ca62e00b,531,Hollyholme Farm Road,Holyholmfarm Road,44.32980473,-79.70927336,0,0
f6e2aa7d-52dc-4eff-94d3-5c42b996f618,534,Reid Drive,,44.33089332,-79.70430153,0,0
4ca77630-17ba-42f1-9f22-983fb6264812,539,"Mapleview at Veteran's","Maplview at Veteran's",44.33201262,-79.69937219,0,0
0c7ae08a-cbf8-43ec-956b-dfb520203c70,510,Mapleview at Chef,,44.349738,-79.621282,0,0
12963efa-23fd-4c7d-bbd6-ee8b792e778f,515,Royal Jubilee Drive,,44.35106978,-79.61566371,0,0
512d959e-d636-4a52-b08f-a0117f84c1a0,596,Mapleview at Prince William Way,,44.3519640101919,-79.6119753638321,0,0
0842de33-bcdf-4bf6-b971-ced77a2232a7,602,The Queensway,,44.35490312,-79.611327,0,0
85902fb4-63b9-496a-a38b-8790d0776ebb,595,Prince William Way at Empire,,44.359826,-79.612888,0,0
31a8e5ba-3565-48a7-b3b9-dee8b3648dc1,600,"Sovereign's Gate",,44.36201245,-79.61448897,0,0
d93d594d-bd05-4aa6-a9d6-cbad23100ea9,121,Royal Park Side Drive,,44.36280583,-79.62251539,0,0
32b8c459-3a9d-4ce4-87c0-d559dfca4292,117,Hurst Drive ,Big Bay Point at Hurst Drive,44.3605720615728,-79.632372387193,0,0
ebc15bdc-d667-4a12-a3de-6ae5df11a760,802,Grand Forest Drive,,44.35978883,-79.63587599,0,0
eb78545f-59af-4fd0-87ea-0fcbf76c8300,972,Big Bay Point at Dodson,,44.358631,-79.641179,0,0
91613b13-75cc-4394-b3b9-01deb7127e07,774,Yonge and Big Bay Point ,Yonge at Big Bay Point,44.3569027994217,-79.6489913552398,0,0
f54f5448-7cf9-41c2-b6c8-238492df139c,878,Leggott Avenue,,44.35468509,-79.65888611,0,0
776e0b62-336a-4fe6-bd7f-1efde2710f45,879,Willow Landing School,,44.35403734,-79.66165791,0,0
e5decc9f-79a2-4ec1-a8ad-63553399a2e5,751,Big Bay Point at Huronia,,44.3533394082488,-79.6645142401895,0,0
cafe905e-4148-412e-a6a0-558397a44c15,124,Welham Road,,44.35102962,-79.67045613,0,0
351f8a0a-d743-430b-a4b5-8628d0c8c097,678,Ellis Drive,,44.34842448,-79.67003749,0,0
f9877cee-3584-4be8-993e-63c0230eb55d,672,530 Welham,,44.3420197,-79.67023057,0,0
09f7659f-248c-4cc4-822b-5b41056d15cb,681,Welham at Mapleview,,44.3391853,-79.67000379,0,0
7e13e6ec-f5f7-4c92-a2e1-5dab03b308fb,932,Hooper Road,,44.33673653,-79.66942321,0,0
c26e82c9-fd1f-47d6-a4b9-e5770eed5bd8,933,Saunders at Welham,,44.334277023928,-79.6689778369056,0,0
03818cfd-0bcd-4c74-b67e-46325a8f5216,756,Hooper Road,,44.33312923,-79.67365255,0,0
ff50f99f-b920-461a-a972-816384a2b89f,757,Saunders at Bayview,,44.332292,-79.67729778,0,0
535e9f38-a7af-4e08-8583-0062d8a6b42d,97,Bayview at Mapleview,,44.3366427324201,-79.678668658654,0,0
48c09452-0884-49e6-b036-c2ef19506f0e,736,North Village Way,,44.34150661,-79.67819993,0,0
8fcbb3ea-0f10-4eb1-a487-6bfeb55c2a40,90,Churchill Drive,,44.34321618,-79.67807608,0,0
442a4b85-e70a-4af3-b6e4-7b84fb7f074e,968,Barrie Primary Care Centre,Barrie Primary Care Campus,44.34727521,-79.67911743,0,0
73295e12-0043-4f40-8039-7f4cb77b58bc,8300 ,Little at Carol,,44.361506,-79.68565,0,0
bdbbb8d3-ff07-4cb0-8e2d-0b12533f13a0,95,Bayview at Little,,44.36257539,-79.68353462,0,0
60e262fa-1f33-4af2-8475-178f7275ff63,102,Springhome Road,,44.366635,-79.684603,0,0
5ca2ffc9-1a24-460f-a301-9bb86cf6b916,54,Brooks Street,,44.3679347257575,-79.6871645562151,0,0
acb280c8-7766-4297-ba76-2f9dee43654c,56,Marshall Street,,44.36791498,-79.68976011,0,0
02813242-1148-4ee0-a01f-a3c73063962d,55,Innisfil Street,,44.36789835,-79.69228549,0,0
2986328b-7538-4c7e-9ec7-747bd345bd28,386,Innisfil at Essa,,44.36995142,-79.69299401,0,0
fc8198e6-7bf8-41bb-9d94-aa65a0ebdd87,71,Bayfield at Livingstone,,44.41032007,-79.7081283,0,0
0f65adf1-dde8-4348-9284-99a4ca9523f5,5580,Mulcaster at Codrington,,44.3939299412861,-79.6855502681359,0,0
64c09423-7c1f-4218-895d-1047a3e5d04d,587,Penetang at Berczy,,44.3948752195095,-79.6844962419047,0,0
64ffd9bd-cecd-4b99-9fc3-4d21ac229d17,585,Dundonald Street,,44.39663299,-79.68163124,0,0
75b71486-6a13-4676-b547-3433a23b6ffc,586,Penetang at St. Vincent,,44.3987596,-79.67817368,0,0
7640c6f3-ab5a-418f-b9ff-fd7b7cd3b2c0,936,Cook Street,,44.3989477693407,-79.6699112456984,0,0
21df538e-0c8f-4e16-993c-705737c70590,567,Napier at Nelson,,44.398569,-79.665355,0,0
94114568-66a2-4637-bbf7-24b3a4e9ce43,568,Steel Street,,44.4020886362844,-79.6640278198736,0,0
beb25dd6-f905-4fcb-971c-b577a7d1ec06,408,Nelson at Grove ,,44.405342,-79.663423,0,0
055e91f2-c341-4cda-b22c-1c421360d535,940,Grove at Cook  ,,44.4065788459921,-79.6682130756304,0,0
4f75422a-8c03-4d23-adbc-657fd9f0156c,331,Georgian College,,44.4104614425435,-79.6685374842606,0,0
28536b36-3093-4b25-9d2a-4d256374be15,327,Grizzlies Way at Duckworth,,44.410958730648,-79.6727912336488,0,0
8463d673-d4f4-4b4d-add5-f2f33a3d673f,216,Cundles at J.C. Massie Way,Cundles at Duckworth,44.41661353,-79.67614223,0,0
f67b32fd-ebdd-4d5e-ac3d-2cac33749790,222,Lions Gate,Cundles at Lions Gate ,44.4160079607968,-79.6789985703825,0,0
5f7f50ee-ccd3-4423-8378-8a9531273938,950,Livingstone Street East,,44.414121,-79.683365,0,0
56a3d603-f899-4674-b121-39db58050e34,928,Osprey Ridge Road ,Livingstone at Osprey Ridge Road,44.416756,-79.686628,0,0
117fa49c-68b9-4e25-bd39-0532a6764ae3,929,Marjoy Avenue,,44.42018615,-79.68977918,0,0
8a119737-6b67-43fa-bcff-c0c3f3a0b9f9,462,Kozlov Street,,44.40835746,-79.7124228,0,0
8f7aebc9-586b-41fa-bf9e-9ddce79d9fdf,466,McDougall Drive,,44.40743543,-79.71601334,0,0
2c2e016c-4a3a-455a-adaf-c8ee227775df,460,Ford Street,,44.40596299,-79.71931928,0,0
40de08f7-5031-48f6-8851-6ccf6b3e1b52,450,Livingstone at Anne,,44.40407683,-79.72361565,0,0
b160c20b-0bc5-43f0-a7f1-ca60c27c8ad1,452,Balliston Crescent,,44.40288702,-79.72786874,0,0
a474e53a-348a-48f5-b687-7764b1192eac,469,Livingstone at Sunnidale,,44.401080509322,-79.7292215990385,0,0
d4c42e14-440f-41c8-84b2-4060bc0d8277,458,Delaney Crescent,,44.3982085,-79.73327138,0,0
c3ec443e-c4f9-4adb-9faa-8dbec5513b34,241,Cundles at Livingstone,,44.39653309,-79.73525923,0,0
c120d6a2-b7d9-4895-afb2-cc3e44221324,247,Emma King Elementary School,,44.39626026,-79.73291097,0,0
f1141fec-96b3-479b-9eb2-9e5b9e83ae66,243,Longman Drive,,44.39732265,-79.73039499,0,0
01e113e8-a5ea-48dd-b924-6a7a20c19f8b,231,Burns Circle,,44.39612658,-79.72634251,0,0
558c02dd-b80f-4c7d-9095-808f9f16d8e7,915,Leacock Drive,,44.39607969,-79.72366027,0,0
50a55b54-4925-444b-a1f8-fb9d5f61cca8,916,Browning Trail,,44.39397095,-79.722845,0,0
ea87e801-d923-433f-824d-abcce803121a,419,Lampman plaza,,44.39150367,-79.72249002,0,0
60172f36-42a9-4994-978c-2cee55066d5f,421,Browning Trail,,44.3885896,-79.71995757,0,0
855b57bc-e082-435e-9ecf-f8804d25ca80,921,Path to Browning Trail,,44.38656933,-79.72086836,0,0
6cac7289-9248-43b4-91d4-c1672acda755,922,Lewis Lane,,44.38558618,-79.72161823,0,0
4ca83938-ddf1-470b-8376-359afa1bb623,890,Edgehill at Fox Run,,44.382688,-79.718201,0,0
e00499a1-75cd-4a4b-8d18-49182a8e3d30,891,Engel Crescent,,44.38330295,-79.71526005,0,0
3dde1e1d-7c8a-470d-8b58-31af7ed099ac,422,Edgehill Drive,Cedar Pointe Drive,44.38464894,-79.71221396,0,0
27fa225a-c899-4084-9e53-e93c555408e9,925,Edgehill at Anne,Anne Street,44.38637,-79.70931,0,0
1de73ddc-04a9-4aa0-aa80-27970ca1e888,251,Duckworth at Rose,,44.4100089152123,-79.673891523654,0,0
dabd96ad-37d7-4d1d-97ef-3db5af081e46,255,Duckworth at Grove,,44.4074348900953,-79.6743151507182,0,0
4367fbdc-12fb-43b1-b5b2-c62e4a1a040e,345,Maple Grove Public School,,44.405182,-79.679296,0,0
13bddf4c-64f8-4437-84da-61b4424d260c,353,Grove at St. Vincent,,44.4035896,-79.68301249,0,0
66fcaab5-6fc6-43a9-b57a-b09dc2352c53,337,Bothwell Crescent,,44.40161247,-79.68602289,0,0
bcc83e0a-09bc-467b-88af-676f04c9dc0d,339,Barrie North Collegiate,,44.40000377,-79.68909394,0,0
b2510fb4-345a-428b-99a9-2b2699f3526d,349,Owen Street,,44.39829531,-79.6930308,0,0
4061a5ea-2300-4790-a9f9-33fbd5ef15b9,7321,Tiffin at Allandale Go Station,Bradford and Tiffen at Allandale Go Station,44.374859,-79.690431,0,0
ef38ed36-a1e0-4350-96be-694055160ce0,651,Innisfil Street,,44.37388755,-79.69395617,0,0
ed0ba60e-f23e-4d1c-adbe-3f81950d786c,647,Tiffin at Anne,,44.3730674161507,-79.6979667304276,0,0
688ccd80-4ded-4b9d-b184-0c02726508bf,641,192 Tiffin Street,,44.37220829,-79.70159464,0,0
f0276a49-2a2c-43f8-b630-490d289a3987,643,236 Tiffin Street,,44.37160704,-79.70415072,0,0
c501dc51-dddd-4c5e-a544-311072e4d4e3,645,Dyment Road,,44.37104459,-79.70670033,0,0
cd53a575-6826-49ec-a6fa-82bc98707832,581,Patterson at Tiffin,,44.36978945,-79.70888486,0,0
904db5d3-86a5-4c09-b306-58e67ee96455,580,Phillips Street,,44.367497525662,-79.708327186604,0,0
e5db8a60-6e5f-4168-91ae-8f2bdcf6dd5e,574,Alva Street,,44.36420057,-79.70745891,0,0
d0923491-11b9-42e9-a30a-c73dc9d14e7c,577,Patterson Place,,44.36191744,-79.70689989,0,0
37338e6c-010c-453c-8770-4a17ee982e24,575,Patterson at Ardagh,,44.35720901,-79.70564801,0,0
6c06655b-26d0-4f7b-aea5-b4ef72e0fb32,33,Elizabeth Street,,44.35658208,-79.70782268,0,0
9060a621-c29d-4dd6-941d-31e81fa3c0b5,39,Snowshoe Trail,,44.3561345,-79.70982703,0,0
9f79f535-281f-4e1b-8c11-f202cae166ac,34,Ardagh at Ferndale,,44.3550829204966,-79.7144090959078,0,0
54e07d7c-29a7-4846-b7ef-14d9d8361abd,37,Hawkins Drive,,44.35342967,-79.72189311,0,0
256ddf97-a9b5-4fd2-ba96-1ea015134875,42,Wright Drive,,44.35231205,-79.72698487,0,0
62182cd1-dbc6-4b51-8907-b5613a0371a1,40,Wildflower Court,,44.35141836,-79.73092996,0,0
57c5bc6a-8816-446c-a421-90729b9de93e,490,Saint Joan of Arc High School,,44.34900391,-79.73426711,0,0
e8bb3a7f-e5cf-4f6d-95b6-1a2148c6b4af,491,Batteaux Street,,44.3479173986863,-79.7340535959037,0,0
5221b60a-cc88-4e40-8540-bbd4c14e1d44,498,Oakside Court,,44.34083908,-79.72906609,0,0
76c4f7b1-d940-4a97-ab87-dbee823163ae,505,White Elm Road,,44.33952273,-79.72437457,0,0
0a09a049-bfc5-42b2-83e7-612ceb77c4f8,497,Mapleton at Marsellus,,44.33929434,-79.7204554,0,0
f2438a83-c3bd-487f-b658-853f1a7dccd4,868,Coughlin Road,,44.33700717,-79.71018188,0,0
884e88ad-fcf6-4918-b0f9-5be3dc4a6528,666,King Street,,44.32966122,-79.69842755,0,0
5404334e-efce-4844-b86b-3301fa8e7b92,201,Norris Drive,,44.32364713,-79.69352622,0,0
ffa33cfc-6aee-4b13-bfb1-7866dc539a76,198,112 Commerce Park Drive,,44.32453901,-79.68949655,0,0
47bec1f4-c40f-458f-945b-a83409c21eaa,162,Bryne Drive,,44.32563066,-79.68724698,0,0
b3f352c3-68a0-4e76-9d13-a981b8338dbd,161,Mill Road,,44.327047,-79.68785321,0,0
0eba6a30-adcf-45c5-823e-3b9d6c03b4e5,871,Bryne at Commerce Park,,44.330246,-79.688396,0,0
461a0f9e-9e9e-439f-9b74-6c8fed82a4b9,849,505 Bryne Drive,,44.33210072,-79.68939828,0,0
94feab20-69c5-48a9-aaff-fa0473a62409,737,South Village Way,,44.33917077,-79.67928743,0,0
6ae330e8-fb33-4ab4-8888-edfb29919c07,661,Caplan Avenue,,44.33678215,-79.69996043,0,0
bf63b83a-3b5b-44c8-a4ee-44109cac14bd,659,Brookwood Drive,,44.33963864,-79.70053342,0,0
1c0e537b-d5d0-475e-82ca-99f9f3aadeee,671,Touchette Drive,,44.34217782,-79.70118081,0,0
776558e6-89bd-435a-be14-888f6dbfef8a,664,"Veteran's at Harvie",,44.34470155,-79.7018223,0,0
78be9f1e-8223-4913-9469-9d0b35dc3f90,662,"Veteran's at Essa",,44.34682915,-79.70389522,0,0
acc27a62-c750-438f-bfe7-d7b24b272892,824,Ferndale at Essa,,44.347137,-79.704938,0,0
1514cc78-08db-401d-9dec-6575757d6f80,825,Cumming Drive,,44.34952889,-79.71017508,0,0
8ceed8c1-52f6-4da5-a61b-b5c49c67de85,826,Hawthorne Crescent,,44.35027506,-79.71156081,0,0
b4b252d5-16ad-4578-9835-b207567ebc1f,827,Wildwood Trail,,44.35190209,-79.71363959,0,0
efb8bc69-f8b7-4041-ac32-adf1f4cd3bdc,828,Ferndale at Ardagh,,44.355333,-79.714754,0,0
b988d241-5df0-4b32-bc9d-2f90ff2181d2,829,Cuthbert Street,,44.35732942,-79.7152786,0,0
90d0e946-908a-4639-90c8-1da924665252,830,Bishop Drive,,44.36103958,-79.71530502,0,0
65ed37aa-845b-4b33-be23-1c71d1c0a4a6,831,Manhattan Homes,,44.366088,-79.713236,0,0
985c068c-37f2-42cd-858e-0f9746fbed4e,836,Tiffin at Ferndale,Tiffin at Ferndale Drive South,44.369218253457,-79.7149520889512,0,0
c3a8a923-e889-4409-81b7-2f2922a04337,835,Miller at Dunlop,,44.3660107871196,-79.7319053111574,0,0
8a6154b9-4968-4123-a5ad-087cb1d1e995,627,Sproule at Kraus,,44.37265817,-79.73537759,0,0
98ba1382-3dc8-4833-b46c-863d18fed4fe,604,Pringle at Sproule,,44.37479916,-79.7310793,0,0
133c39ec-ca95-4713-9f04-cfab57ecc477,603,Pringle at Edgehill,,44.37803338,-79.73431069,0,0
e3691f11-b055-418a-92ac-0c34c820b013,286,Jagges Drive,,44.380526,-79.727776,0,0
e8864dfb-7172-4e88-bc17-ca941f61e671,283,Edgehill at Ferndale,,44.38118332,-79.7248207,0,0
91b3e563-86f9-456b-9a7e-ac70dc9412f4,262,Ferndale at Barrie Operations,,44.3787308812101,-79.7226606143584,0,0
92d2804e-0f02-463b-802b-e39fd4e4cb07,271,Dunlop at Ferndale,Ferndale at Dunlop,44.376627,-79.718781,0,0
2cd0a547-3e73-414b-9c43-c91b68d7ea2c,277,Sarjeant Drive,,44.377304,-79.716937,0,0
d101ad36-983d-4569-a2b5-49ccdfc3f74d,274,Hart Drive,,44.381728,-79.706946,0,0
505c6756-b5a6-42c5-915b-5bf7d618986d,867,Barrie View Drive,,44.3349864682547,-79.6871699206334,0,0
7c0816a5-c70f-4f74-b570-39a1464596ed,848,506 Bryne Drive,,44.33187138,-79.6894192,0,0
b1e0cc00-fc3b-4e91-a602-31e68bf2d34e,850,Commerce Park Drive ,Bryne Dr at Commerce Park Drive,44.32991035,-79.68862443,0,0
4d28dbae-f600-4388-8cda-3034080ac489,851,Mills Road,,44.32725928,-79.68813661,0,0
4707dc22-2fb7-4f2c-970f-3252f7a6b942,852,Commerce Park Drive,,44.3253194,-79.6872821,0,0
a574c0ca-19f1-4c18-ba7d-9aac93048c1b,199,121 Commerce Park Drive,,44.32467468,-79.68975503,0,0
52b8c1a0-46c4-4942-8ba3-ec02137c2cea,200,Norris Drive,,44.32395013,-79.69301672,0,0
e1d6d729-0f9f-4d4c-81f8-4636d5429a37,665,King Street,,44.32942968,-79.69807287,0,0
c648b659-f13a-40f9-98d2-a27e4784c635,853,Essa Road,,44.32921574,-79.71319544,0,0
1b35fa33-62fc-4253-a821-5372afc79280,855,Coughlin Road,,44.33691527,-79.70991124,0,0
d2a1b633-7103-4e01-ab3c-6fa4a6621124,504,White Elm Road,,44.33976471,-79.72473666,0,0
6f85e4ab-e99a-4aad-bfb8-d78d0835d70b,499,Pinecliff Crescent,,44.34123342,-79.72988353,0,0
cfe6a784-8376-4cec-9e8c-8afb8738f213,500,Silvercreek Crescent,,44.3477215974165,-79.733704908711,0,0
186b6e3e-5a9e-4fc7-b4f2-4b75cc0f15f7,489,Saint Joan of Arc High School,,44.34901936,-79.73412737,0,0
b402185c-3f18-462b-b8e5-52c112f6ab59,41,Wildflower Court,,44.35127803,-79.73086153,0,0
c4621ea0-5b62-4a85-b945-75154f5c4542,36,"Grant's Way",,44.3520781,-79.72746197,0,0
880627cf-9e25-4041-87a9-fdce5d65273e,32,Eaglestone Lane,,44.3532061,-79.72225259,0,0
6090d592-30aa-4771-90e2-d0d08df72399,35,Ardagh at Ferndale,,44.3549608799792,-79.7140174933682,0,0
3d7341f8-f33a-4f04-9aba-9c0f124ce69e,38,Snowshoe Trail,,44.35598594,-79.70986103,0,0
131e36c4-48f0-4383-bc05-112a6706218c,576,Patterson at Ardagh,,44.3571897958034,-79.7055859688274,0,0
d528664a-a1a9-433a-a211-dccc0dfb4a61,578,Patterson Place,,44.36170278,-79.70672568,0,0
397294f5-114e-4c06-8ff3-2d0be4c81144,573,Alva Street,,44.36419828,-79.70730927,0,0
7ab611a9-ef84-4cd7-b354-5b041916dccd,579,Phillips Street,,44.36760738,-79.70815659,0,0
9151fc8d-590b-46fb-a494-10eb47151f2c,582,Patterson at Tiffin,,44.36936283,-79.70862279,0,0
31f2bb1d-9a89-439e-8784-4a98df512c14,646,Dyment Road,,44.37101971,-79.70622622,0,0
1e7d8f15-27a9-42f8-b7b2-67bc86177107,644,247 Tiffin Street,,44.37141175,-79.70451547,0,0
e4e7e370-269f-4be1-b1a5-8e3cc96c8377,642,207 Tiffin Street,,44.37211017,-79.7014221,0,0
01de0b91-e610-4acd-8869-933ecb7c50ad,648,Tiffin at Anne,,44.372957,-79.697584,0,0
f0fee405-2b5c-4611-acbe-118044f11ad7,652,Innisfil Street,,44.37371258,-79.69418103,0,0
68bed1c8-1f56-4fc4-b5ba-febb912f17d2,7322,Tiffin Street at Allandale Go Station,Tiffin Street at Allandale Go Station - 7A Northbound,44.374456,-79.691067,0,0
db1b12cd-2291-478e-bd36-6acc753590a8,348,Owen Street,,44.3984896,-79.69232901,0,0
22c5139d-de1a-4927-87d2-d4cef4805ed4,340,Grove at Davidson,,44.40018354,-79.68845319,0,0
1a3b1a98-f169-4281-8bad-5f24677e884d,347,Oak Street,,44.40178296,-79.68568914,0,0
cf5fa873-4a26-472f-bba1-b6d3d715cf75,354,Grove at St. Vincent,,44.4035517813892,-79.6828703393263,0,0
2957e2cd-f383-4947-a408-bab2e43f758d,937,229 Grove,,44.404857,-79.679819,0,0
a39b3a9d-202d-43f7-8033-7e4065e849a2,938,Grove at Duckworth ,,44.406965,-79.67363,0,0
c3a6ab13-c279-416e-b1ac-7dc432bf3b25,939,Grove at Cook Street ,,44.4065169636319,-79.6690931719001,0,0
fdb45438-b3c2-4301-9d7c-9a8e021d4e58,982,47 Churchhill Dr,,44.3442303753779,-79.6741339266807,0,0
9dd8454e-754d-4fb6-bed6-ec314ffdc711,17,Edgehill Drive,,44.38697443,-79.70892086,0,0
374a251d-4263-4532-adcc-56cba1ec37ab,25,Shirley Avenue,,44.3907245,-79.71217627,0,0
811ef3a7-e547-4174-83d8-68aaab8927c1,13,Castle Drive,,44.39285742,-79.71398784,0,0
4294ac32-6142-45c7-8409-d3446ff3e5c8,28,Valley Drive,,44.39465327,-79.71557114,0,0
6f140df2-53a3-4692-bf22-c664fd35bedc,3,Ecole Catholique,,44.39596232,-79.71669424,0,0
6643da75-c834-4fe5-b51f-69399b37cf58,16,Cundles at Anne,,44.398783,-79.718931,0,0
d12c166d-21ca-4e17-a68e-b5aed2b3afef,245,Cundles at Sunnidale,,44.3995707,-79.71715157,0,0
210eb59a-4c57-42a6-ba28-74811d179a68,239,Coleman Health Care Centre,,44.40060465,-79.71485951,0,0
362a4bec-4b37-4b5e-995d-52b26bc6a9a1,235,Cundles at Kozlov,,44.403534,-79.706866,0,0
559beb10-9714-4439-b856-be5ca609c821,415,Kozlov at Cundles,,44.40499142,-79.70684254,0,0
df376b10-8be4-4970-92ad-3eda2285b5b0,416,Heather Street,,44.40678734,-79.70875024,0,0
89d12037-e065-48f9-9478-dcc9fb7c59f2,901,Gloria Street,,44.40735307,-79.71133586,0,0
943c6d3d-0481-4fd5-b33c-9983ebe81c3f,635,Rolston Drive,,44.41537373,-79.69230844,0,0
0681de9f-faaf-4c55-9c0a-47b94d2a5e2d,105,Alliance Boulevard,,44.40923713,-79.67933789,0,0
6068a062-fa86-4075-9372-6e27217b609f,63,Rose at Bayfield,,44.3988698362821,-79.6975102122575,0,0
7f2dce04-f5bd-4707-9bd9-aeefd50610bb,329,Georgian at Govenors,,44.4144616428317,-79.668493314166,0,0
26f47c01-7812-409f-bd9e-127b6cd2ff02,89,Bayfield at Chase McEachern,,44.3884489290011,-79.6893494311657,0,0
909cd935-2d3c-4b03-8f68-73608cce0ef5,400,Johnson at Napier,Blake at Johnson,44.39796716,-79.65635548,0,0
cd494664-18c5-490f-a355-008b3d3cfdb0,697,135 Wellington Place,,44.38842266,-79.70540222,0,0
0e78b596-ba09-4465-b49b-95d6f427a467,606,Red Oak at Sundew,,44.327712,-79.733342,0,0
ffacd792-8f23-49ca-a2c5-c3c246e15909,640,Sundew at Red Oak,,44.328088,-79.733158,0,0
b53a5a1d-1d99-4760-bd08-25809a348194,191,Owen Street,,44.390480034976,-79.6876996569454,0,0
